{port=15015, GCS_IP=192.168.0.164, system_id=1, flight_status=0, auto_time=167.0, throttle_active=false, lat=35.0767313, lon=129.0921082, alt=32.441, dist_traveled=3983.393525985347, wp_dist=65535, heading=359, target_heading=359, previous_heading=35900, dist_to_home=3.7479761222690495, vertical_speed=-0.1420746147632599, ground_speed=8.05622673034668, wind_vel=0.031247379258275032, airspeed=6.228979110717773, gps_hdop=1.21, roll=-11.15, pitch=1.25, yaw=-0.55, ch3percent=0.0, ch9out=0.0, tot=0.0, toh=0.47, time_in_air=0.0, throttle_time_in_air=167.143, ch10out=0.0, ch11out=0.0, ch12out=0.0, battery_voltage=0, battery_current=-1, waypoints_count=0, home_location={lon=129.0921074, lat=35.0766976}, waypoints=[{seq=0, lat=35.0766976, lon=129.0921074, alt=43.8}], ch3out=1000, timestamp=2025-07-18T13:08:51.498254, flight_count=2}
{port=15015, GCS_IP=192.168.0.164, system_id=1, flight_status=0, auto_time=167.0, throttle_active=false, lat=35.0767313, lon=129.0921082, alt=32.441, dist_traveled=3983.393525985347, wp_dist=65535, heading=359, target_heading=359, previous_heading=35900, dist_to_home=3.7479761222690495, vertical_speed=-0.1420746147632599, ground_speed=8.05622673034668, wind_vel=0.031247379258275032, airspeed=6.228979110717773, gps_hdop=1.21, roll=-11.15, pitch=1.25, yaw=-0.55, ch3percent=0.0, ch9out=0.0, tot=0.0, toh=0.47, time_in_air=0.0, throttle_time_in_air=167.143, ch10out=0.0, ch11out=0.0, ch12out=0.0, battery_voltage=0, battery_current=-1, waypoints_count=0, home_location={lon=129.0921074, lat=35.0766976}, waypoints=[{seq=0, lat=35.0766976, lon=129.0921074, alt=43.8}], ch3out=1000, timestamp=2025-07-18T13:08:51.498254, flight_count=2}
{port=15015, GCS_IP=192.168.0.164, system_id=1, flight_status=0, auto_time=167.0, throttle_active=false, lat=35.0768721, lon=129.0920728, alt=32.299, dist_traveled=3999.377750754013, wp_dist=65535, heading=347, target_heading=347, previous_heading=34700, dist_to_home=19.657315786252575, vertical_speed=-0.039663080126047134, ground_speed=13.339316368103027, wind_vel=0.031247379258275032, airspeed=11.642413139343262, gps_hdop=1.21, roll=-17.62, pitch=0.66, yaw=-12.73, ch3percent=0.0, ch9out=0.0, tot=4912.92, toh=1.47, time_in_air=1.0, throttle_time_in_air=167.143, ch10out=0.0, ch11out=0.0, ch12out=0.0, battery_voltage=0, battery_current=-1, waypoints_count=0, home_location={lon=129.0921074, lat=35.0766976}, waypoints=[{seq=0, lat=35.0766976, lon=129.0921074, alt=43.8}], ch3out=1000, timestamp=2025-07-18T13:08:53.50155, flight_count=2}
{port=15015, GCS_IP=192.168.0.164, system_id=1, flight_status=0, auto_time=167.0, throttle_active=false, lat=35.0770083, lon=129.092004, alt=32.25, dist_traveled=4015.7655781590543, wp_dist=65535, heading=335, target_heading=335, previous_heading=33500, dist_to_home=35.806691823477635, vertical_speed=-0.05273180454969406, ground_speed=18.230113983154297, wind_vel=0.031247379258275032, airspeed=17.192296981811523, gps_hdop=1.21, roll=-15.18, pitch=-0.31, yaw=-24.36, ch3percent=0.0, ch9out=0.0, tot=3594.88, toh=1.96, time_in_air=2.0, throttle_time_in_air=167.143, ch10out=0.0, ch11out=0.0, ch12out=0.0, battery_voltage=0, battery_current=-1, waypoints_count=0, home_location={lon=129.0921074, lat=35.0766976}, waypoints=[{seq=0, lat=35.0766976, lon=129.0921074, alt=43.8}], ch3out=1000, timestamp=2025-07-18T13:08:54.502577, flight_count=2}
{port=15015, GCS_IP=192.168.0.164, system_id=1, flight_status=0, auto_time=167.0, throttle_active=false, lat=35.0770835, lon=129.0919558, alt=32.273, dist_traveled=4025.2079985705464, wp_dist=65535, heading=331, target_heading=331, previous_heading=33100, dist_to_home=45.073236613776324, vertical_speed=0.18329010903835297, ground_speed=20.1031551361084, wind_vel=0.031247379258275032, airspeed=19.180416107177734, gps_hdop=1.21, roll=-11.21, pitch=-0.56, yaw=-28.85, ch3percent=0.0, ch9out=0.0, tot=3259.94, toh=2.24, time_in_air=3.0, throttle_time_in_air=167.143, ch10out=0.0, ch11out=0.0, ch12out=0.0, battery_voltage=0, battery_current=-1, waypoints_count=0, home_location={lon=129.0921074, lat=35.0766976}, waypoints=[{seq=0, lat=35.0766976, lon=129.0921074, alt=43.8}], ch3out=1000, timestamp=2025-07-18T13:08:55.502554, flight_count=2}
{port=15015, GCS_IP=192.168.0.164, system_id=1, flight_status=0, auto_time=167.0, throttle_active=false, lat=35.0772409, lon=129.091839, alt=32.511, dist_traveled=4045.684648478067, wp_dist=65535, heading=327, target_heading=327, previous_heading=32700, dist_to_home=65.1627418433615, vertical_speed=0.2528025209903717, ground_speed=21.735403060913086, wind_vel=0.031247379258275032, airspeed=21.126773834228516, gps_hdop=1.21, roll=-6.53, pitch=-1.18, yaw=-32.79, ch3percent=0.0, ch9out=0.0, tot=3015.13, toh=3.0, time_in_air=4.0, throttle_time_in_air=167.143, ch10out=0.0, ch11out=0.0, ch12out=0.0, battery_voltage=0, battery_current=-1, waypoints_count=0, home_location={lon=129.0921074, lat=35.0766976}, waypoints=[{seq=0, lat=35.0766976, lon=129.0921074, alt=43.8}], ch3out=1000, timestamp=2025-07-18T13:08:56.501439, flight_count=2}
{port=15015, GCS_IP=192.168.0.164, system_id=1, flight_status=0, auto_time=167.0, throttle_active=false, lat=35.0774045, lon=129.0917039, alt=32.776, dist_traveled=4067.640813886721, wp_dist=65535, heading=325, target_heading=325, previous_heading=32500, dist_to_home=86.75701701036267, vertical_speed=0.2157468944787979, ground_speed=22.77332878112793, wind_vel=0.031247379258275032, airspeed=22.32605743408203, gps_hdop=1.21, roll=-3.52, pitch=-1.64, yaw=-34.88, ch3percent=0.0, ch9out=0.0, tot=2877.71, toh=3.81, time_in_air=5.0, throttle_time_in_air=167.143, ch10out=0.0, ch11out=0.0, ch12out=0.0, battery_voltage=0, battery_current=-1, waypoints_count=0, home_location={lon=129.0921074, lat=35.0766976}, waypoints=[{seq=0, lat=35.0766976, lon=129.0921074, alt=43.8}], ch3out=1000, timestamp=2025-07-18T13:08:57.493185, flight_count=2}
{port=15015, GCS_IP=192.168.0.164, system_id=1, flight_status=0, auto_time=167.0, throttle_active=false, lat=35.0775723, lon=129.0915578, alt=32.982, dist_traveled=4090.5514352080672, wp_dist=65535, heading=324, target_heading=324, previous_heading=32400, dist_to_home=109.36761192821544, vertical_speed=0.09537521004676819, ground_speed=23.42690658569336, wind_vel=0.031247379258275032, airspeed=23.056928634643555, gps_hdop=1.21, roll=-1.72, pitch=-2.1, yaw=-35.9, ch3percent=0.0, ch9out=0.0, tot=2797.42, toh=4.67, time_in_air=6.0, throttle_time_in_air=167.143, ch10out=0.0, ch11out=0.0, ch12out=0.0, battery_voltage=0, battery_current=-1, waypoints_count=0, home_location={lon=129.0921074, lat=35.0766976}, waypoints=[{seq=0, lat=35.0766976, lon=129.0921074, alt=43.8}], ch3out=1000, timestamp=2025-07-18T13:08:58.502487, flight_count=2}
{port=15015, GCS_IP=192.168.0.164, system_id=1, flight_status=0, auto_time=167.0, throttle_active=false, lat=35.0778279, lon=129.0913289, alt=33.079, dist_traveled=4125.788521747585, wp_dist=65535, heading=323, target_heading=323, previous_heading=32300, dist_to_home=144.2744470546584, vertical_speed=-0.036539021879434586, ground_speed=23.990581512451172, wind_vel=0.031247379258275032, airspeed=23.777353286743164, gps_hdop=1.21, roll=-0.66, pitch=-2.52, yaw=-36.54, ch3percent=0.0, ch9out=0.0, tot=2731.7, toh=6.01, time_in_air=7.0, throttle_time_in_air=167.143, ch10out=0.0, ch11out=0.0, ch12out=0.0, battery_voltage=0, battery_current=-1, waypoints_count=0, home_location={lon=129.0921074, lat=35.0766976}, waypoints=[{seq=0, lat=35.0766976, lon=129.0921074, alt=43.8}], ch3out=1000, timestamp=2025-07-18T13:08:59.493107, flight_count=2}
{port=15015, GCS_IP=192.168.0.164, system_id=1, flight_status=0, auto_time=167.0, throttle_active=false, lat=35.0779151, lon=129.0912502, alt=33.011, dist_traveled=4137.842766848666, wp_dist=65535, heading=323, target_heading=323, previous_heading=32300, dist_to_home=156.24477439406613, vertical_speed=-1.447855830192566, ground_speed=24.188312530517578, wind_vel=0.031247379258275032, airspeed=24.04299545288086, gps_hdop=1.21, roll=-0.14, pitch=-6.65, yaw=-36.78, ch3percent=0.0, ch9out=0.0, tot=2709.37, toh=6.46, time_in_air=8.0, throttle_time_in_air=167.143, ch10out=0.0, ch11out=0.0, ch12out=0.0, battery_voltage=0, battery_current=-1, waypoints_count=0, home_location={lon=129.0921074, lat=35.0766976}, waypoints=[{seq=0, lat=35.0766976, lon=129.0921074, alt=43.8}], ch3out=1000, timestamp=2025-07-18T13:09:00.493095, flight_count=2}
{port=15015, GCS_IP=192.168.0.164, system_id=1, flight_status=0, auto_time=167.0, throttle_active=false, lat=35.0780907, lon=129.091091, alt=31.202, dist_traveled=4162.1559460913295, wp_dist=65535, heading=323, target_heading=323, previous_heading=32300, dist_to_home=180.4175068529376, vertical_speed=-1.7448348999023438, ground_speed=24.828109741210938, wind_vel=0.031247379258275032, airspeed=24.511045455932617, gps_hdop=1.21, roll=-0.22, pitch=-6.43, yaw=-36.85, ch3percent=0.0, ch9out=0.0, tot=2639.55, toh=7.27, time_in_air=9.0, throttle_time_in_air=167.143, ch10out=0.0, ch11out=0.0, ch12out=0.0, battery_voltage=0, battery_current=-1, waypoints_count=0, home_location={lon=129.0921074, lat=35.0766976}, waypoints=[{seq=0, lat=35.0766976, lon=129.0921074, alt=43.8}], ch3out=1000, timestamp=2025-07-18T13:09:01.501388, flight_count=2}
{port=15015, GCS_IP=192.168.0.164, system_id=1, flight_status=0, auto_time=167.0, throttle_active=false, lat=35.0782718, lon=129.0909265, alt=29.646, dist_traveled=4187.247641360372, wp_dist=65535, heading=322, target_heading=322, previous_heading=32200, dist_to_home=205.39700968483572, vertical_speed=-0.9865349531173706, ground_speed=25.61433982849121, wind_vel=0.031247379258275032, airspeed=25.24301528930664, gps_hdop=1.21, roll=-0.16, pitch=-4.83, yaw=-37.02, ch3percent=0.0, ch9out=0.0, tot=2558.53, toh=8.02, time_in_air=10.0, throttle_time_in_air=167.143, ch10out=0.0, ch11out=0.0, ch12out=0.0, battery_voltage=0, battery_current=-1, waypoints_count=0, home_location={lon=129.0921074, lat=35.0766976}, waypoints=[{seq=0, lat=35.0766976, lon=129.0921074, alt=43.8}], ch3out=1000, timestamp=2025-07-18T13:09:02.501364, flight_count=2}
{port=15015, GCS_IP=192.168.0.164, system_id=1, flight_status=0, auto_time=167.0, throttle_active=false, lat=35.0784575, lon=129.0907578, alt=28.863, dist_traveled=4212.977828551249, wp_dist=65535, heading=322, target_heading=322, previous_heading=32200, dist_to_home=231.0372827155563, vertical_speed=-0.34439802169799805, ground_speed=26.085615158081055, wind_vel=0.031247379258275032, airspeed=25.760568618774414, gps_hdop=1.21, roll=-0.03, pitch=-3.52, yaw=-37.14, ch3percent=0.0, ch9out=0.0, tot=2512.3, toh=8.86, time_in_air=11.0, throttle_time_in_air=167.143, ch10out=0.0, ch11out=0.0, ch12out=0.0, battery_voltage=0, battery_current=-1, waypoints_count=0, home_location={lon=129.0921074, lat=35.0766976}, waypoints=[{seq=0, lat=35.0766976, lon=129.0921074, alt=43.8}], ch3out=1000, timestamp=2025-07-18T13:09:03.502454, flight_count=2}
{port=15015, GCS_IP=192.168.0.164, system_id=1, flight_status=0, auto_time=167.0, throttle_active=false, lat=35.0786457, lon=129.0905867, alt=28.631, dist_traveled=4239.061387003604, wp_dist=65535, heading=322, target_heading=322, previous_heading=32200, dist_to_home=257.04737135095957, vertical_speed=0.04473116248846054, ground_speed=26.2828369140625, wind_vel=0.031247379258275032, airspeed=26.011913299560547, gps_hdop=1.21, roll=0.07, pitch=-2.7, yaw=-37.08, ch3percent=0.0, ch9out=0.0, tot=2493.45, toh=9.78, time_in_air=12.0, throttle_time_in_air=167.143, ch10out=0.0, ch11out=0.0, ch12out=0.0, battery_voltage=0, battery_current=-1, waypoints_count=0, home_location={lon=129.0921074, lat=35.0766976}, waypoints=[{seq=0, lat=35.0766976, lon=129.0921074, alt=43.8}], ch3out=1000, timestamp=2025-07-18T13:09:04.498533, flight_count=2}
{port=15015, GCS_IP=192.168.0.164, system_id=1, flight_status=0, auto_time=167.0, throttle_active=false, lat=35.0789294, lon=129.0903294, alt=28.896, dist_traveled=4278.346914249955, wp_dist=65535, heading=322, target_heading=322, previous_heading=32200, dist_to_home=296.24941733239206, vertical_speed=0.2728480398654938, ground_speed=26.2469539642334, wind_vel=0.031247379258275032, airspeed=26.10148048400879, gps_hdop=1.21, roll=-0.17, pitch=-2.27, yaw=-37.21, ch3percent=0.0, ch9out=0.0, tot=2496.86, toh=11.29, time_in_air=13.0, throttle_time_in_air=167.143, ch10out=0.0, ch11out=0.0, ch12out=0.0, battery_voltage=0, battery_current=-1, waypoints_count=0, home_location={lon=129.0921074, lat=35.0766976}, waypoints=[{seq=0, lat=35.0766976, lon=129.0921074, alt=43.8}], ch3out=1000, timestamp=2025-07-18T13:09:05.502447, flight_count=2}
{port=15015, GCS_IP=192.168.0.164, system_id=1, flight_status=0, auto_time=167.0, throttle_active=false, lat=35.0790238, lon=129.0902436, alt=29.037, dist_traveled=4291.429012478385, wp_dist=65535, heading=322, target_heading=322, previous_heading=32200, dist_to_home=309.30762977747474, vertical_speed=0.3185141384601593, ground_speed=26.146869659423828, wind_vel=0.031247379258275032, airspeed=25.991458892822266, gps_hdop=1.21, roll=0.13, pitch=-2.09, yaw=-37.27, ch3percent=0.0, ch9out=0.0, tot=2506.42, toh=11.83, time_in_air=14.0, throttle_time_in_air=167.143, ch10out=0.0, ch11out=0.0, ch12out=0.0, battery_voltage=0, battery_current=-1, waypoints_count=0, home_location={lon=129.0921074, lat=35.0766976}, waypoints=[{seq=0, lat=35.0766976, lon=129.0921074, alt=43.8}], ch3out=1000, timestamp=2025-07-18T13:09:06.501065, flight_count=2}
{port=15015, GCS_IP=192.168.0.164, system_id=1, flight_status=0, auto_time=167.0, throttle_active=false, lat=35.079212, lon=129.0900729, alt=29.346, dist_traveled=4317.490795663456, wp_dist=65535, heading=322, target_heading=322, previous_heading=32200, dist_to_home=335.32878114116113, vertical_speed=0.2996509075164795, ground_speed=25.986068725585938, wind_vel=0.031247379258275032, airspeed=25.846275329589844, gps_hdop=1.21, roll=-0.09, pitch=-2.14, yaw=-37.43, ch3percent=0.0, ch9out=0.0, tot=2521.93, toh=12.9, time_in_air=15.0, throttle_time_in_air=167.143, ch10out=0.0, ch11out=0.0, ch12out=0.0, battery_voltage=0, battery_current=-1, waypoints_count=0, home_location={lon=129.0921074, lat=35.0766976}, waypoints=[{seq=0, lat=35.0766976, lon=129.0921074, alt=43.8}], ch3out=1000, timestamp=2025-07-18T13:09:07.493849, flight_count=2}
{port=15015, GCS_IP=192.168.0.164, system_id=1, flight_status=0, auto_time=167.0, throttle_active=false, lat=35.0793978, lon=129.0899038, alt=29.649, dist_traveled=4343.251527308322, wp_dist=65535, heading=322, target_heading=322, previous_heading=32200, dist_to_home=361.05298362740643, vertical_speed=0.19034181535243988, ground_speed=25.77560043334961, wind_vel=0.031247379258275032, airspeed=25.678438186645508, gps_hdop=1.21, roll=-0.05, pitch=-2.32, yaw=-37.44, ch3percent=0.0, ch9out=0.0, tot=2542.52, toh=14.01, time_in_air=16.0, throttle_time_in_air=167.143, ch10out=0.0, ch11out=0.0, ch12out=0.0, battery_voltage=0, battery_current=-1, waypoints_count=0, home_location={lon=129.0921074, lat=35.0766976}, waypoints=[{seq=0, lat=35.0766976, lon=129.0921074, alt=43.8}], ch3out=1000, timestamp=2025-07-18T13:09:08.497402, flight_count=2}
{port=15015, GCS_IP=192.168.0.164, system_id=1, flight_status=0, auto_time=167.0, throttle_active=false, lat=35.0795828, lon=129.0897355, alt=29.862, dist_traveled=4368.897412167372, wp_dist=65535, heading=322, target_heading=322, previous_heading=32200, dist_to_home=386.667587899197, vertical_speed=0.20191195607185364, ground_speed=25.613204956054688, wind_vel=0.031247379258275032, airspeed=25.56169319152832, gps_hdop=1.21, roll=0.24, pitch=-2.15, yaw=-37.51, ch3percent=0.0, ch9out=0.0, tot=2558.64, toh=15.1, time_in_air=17.0, throttle_time_in_air=167.143, ch10out=0.0, ch11out=0.0, ch12out=0.0, battery_voltage=0, battery_current=-1, waypoints_count=0, home_location={lon=129.0921074, lat=35.0766976}, waypoints=[{seq=0, lat=35.0766976, lon=129.0921074, alt=43.8}], ch3out=1000, timestamp=2025-07-18T13:09:09.494532, flight_count=2}
{port=15015, GCS_IP=192.168.0.164, system_id=1, flight_status=0, auto_time=167.0, throttle_active=false, lat=35.0797667, lon=129.0895681, alt=30.089, dist_traveled=4394.396260660452, wp_dist=65535, heading=322, target_heading=322, previous_heading=32200, dist_to_home=412.1388655045541, vertical_speed=0.16690483689308167, ground_speed=25.478750228881836, wind_vel=0.031247379258275032, airspeed=25.39507484436035, gps_hdop=1.21, roll=0.0, pitch=-2.31, yaw=-37.49, ch3percent=0.0, ch9out=0.0, tot=2572.14, toh=16.18, time_in_air=18.0, throttle_time_in_air=167.143, ch10out=0.0, ch11out=0.0, ch12out=0.0, battery_voltage=0, battery_current=-1, waypoints_count=0, home_location={lon=129.0921074, lat=35.0766976}, waypoints=[{seq=0, lat=35.0766976, lon=129.0921074, alt=43.8}], ch3out=1000, timestamp=2025-07-18T13:09:10.49747, flight_count=2}
{port=15015, GCS_IP=192.168.0.164, system_id=1, flight_status=0, auto_time=167.0, throttle_active=false, lat=35.0800423, lon=129.0893174, alt=30.305, dist_traveled=4432.600459607541, wp_dist=65535, heading=322, target_heading=322, previous_heading=32200, dist_to_home=450.30811849910447, vertical_speed=0.0838647112250328, ground_speed=25.397592544555664, wind_vel=0.031247379258275032, airspeed=25.27137565612793, gps_hdop=1.21, roll=-0.02, pitch=-2.47, yaw=-37.47, ch3percent=0.0, ch9out=0.0, tot=2580.36, toh=17.73, time_in_air=19.0, throttle_time_in_air=167.143, ch10out=0.0, ch11out=0.0, ch12out=0.0, battery_voltage=0, battery_current=-1, waypoints_count=0, home_location={lon=129.0921074, lat=35.0766976}, waypoints=[{seq=0, lat=35.0766976, lon=129.0921074, alt=43.8}], ch3out=1000, timestamp=2025-07-18T13:09:11.492934, flight_count=2}
{port=15015, GCS_IP=192.168.0.164, system_id=1, flight_status=0, auto_time=167.0, throttle_active=false, lat=35.0801339, lon=129.0892342, alt=30.355, dist_traveled=4445.291477024397, wp_dist=65535, heading=322, target_heading=322, previous_heading=32200, dist_to_home=462.9891614092807, vertical_speed=0.08869701623916626, ground_speed=25.348297119140625, wind_vel=0.031247379258275032, airspeed=25.194005966186523, gps_hdop=1.21, roll=0.09, pitch=-2.44, yaw=-37.61, ch3percent=0.0, ch9out=0.0, tot=2585.38, toh=18.27, time_in_air=20.0, throttle_time_in_air=167.143, ch10out=0.0, ch11out=0.0, ch12out=0.0, battery_voltage=0, battery_current=-1, waypoints_count=0, home_location={lon=129.0921074, lat=35.0766976}, waypoints=[{seq=0, lat=35.0766976, lon=129.0921074, alt=43.8}], ch3out=1000, timestamp=2025-07-18T13:09:12.49738, flight_count=2}
{port=15015, GCS_IP=192.168.0.164, system_id=1, flight_status=0, auto_time=167.0, throttle_active=false, lat=35.0804082, lon=129.0889853, alt=30.455, dist_traveled=4483.281883240232, wp_dist=65535, heading=322, target_heading=322, previous_heading=32200, dist_to_home=500.9533771817303, vertical_speed=0.08528077602386475, ground_speed=25.312210083007812, wind_vel=0.031247379258275032, airspeed=25.087047576904297, gps_hdop=1.21, roll=-0.18, pitch=-2.53, yaw=-37.58, ch3percent=0.0, ch9out=0.0, tot=2589.07, toh=19.79, time_in_air=21.0, throttle_time_in_air=167.143, ch10out=0.0, ch11out=0.0, ch12out=0.0, battery_voltage=0, battery_current=-1, waypoints_count=0, home_location={lon=129.0921074, lat=35.0766976}, waypoints=[{seq=0, lat=35.0766976, lon=129.0921074, alt=43.8}], ch3out=1000, timestamp=2025-07-18T13:09:13.497364, flight_count=2}
{port=15015, GCS_IP=192.168.0.164, system_id=1, flight_status=0, auto_time=167.0, throttle_active=false, lat=35.0804994, lon=129.0889026, alt=30.486, dist_traveled=4495.910045560487, wp_dist=65535, heading=322, target_heading=322, previous_heading=32200, dist_to_home=513.57383176027, vertical_speed=0.08267530798912048, ground_speed=25.29402732849121, wind_vel=0.031247379258275032, airspeed=25.096092224121094, gps_hdop=1.21, roll=-0.11, pitch=-2.52, yaw=-37.6, ch3percent=0.0, ch9out=0.0, tot=2590.93, toh=20.3, time_in_air=22.0, throttle_time_in_air=167.143, ch10out=0.0, ch11out=0.0, ch12out=0.0, battery_voltage=0, battery_current=-1, waypoints_count=0, home_location={lon=129.0921074, lat=35.0766976}, waypoints=[{seq=0, lat=35.0766976, lon=129.0921074, alt=43.8}], ch3out=1000, timestamp=2025-07-18T13:09:14.492905, flight_count=2}
{port=15015, GCS_IP=192.168.0.164, system_id=1, flight_status=0, auto_time=167.0, throttle_active=false, lat=35.0807722, lon=129.0886553, alt=30.547, dist_traveled=4533.679686473607, wp_dist=65535, heading=322, target_heading=322, previous_heading=32200, dist_to_home=551.322704287362, vertical_speed=-0.03325669467449188, ground_speed=25.224905014038086, wind_vel=0.031247379258275032, airspeed=25.002058029174805, gps_hdop=1.21, roll=0.12, pitch=-2.73, yaw=-37.52, ch3percent=0.0, ch9out=0.0, tot=2598.03, toh=21.86, time_in_air=23.0, throttle_time_in_air=167.143, ch10out=0.0, ch11out=0.0, ch12out=0.0, battery_voltage=0, battery_current=-1, waypoints_count=0, home_location={lon=129.0921074, lat=35.0766976}, waypoints=[{seq=0, lat=35.0766976, lon=129.0921074, alt=43.8}], ch3out=1000, timestamp=2025-07-18T13:09:15.494971, flight_count=2}
{port=15015, GCS_IP=192.168.0.164, system_id=1, flight_status=0, auto_time=167.0, throttle_active=false, lat=35.080863, lon=129.0885731, alt=30.536, dist_traveled=4546.245002059186, wp_dist=65535, heading=322, target_heading=322, previous_heading=32200, dist_to_home=563.881982763489, vertical_speed=0.005190232302993536, ground_speed=25.215957641601562, wind_vel=0.031247379258275032, airspeed=25.045183181762695, gps_hdop=1.21, roll=-0.08, pitch=-2.61, yaw=-37.59, ch3percent=0.0, ch9out=0.0, tot=2598.95, toh=22.36, time_in_air=24.0, throttle_time_in_air=167.143, ch10out=0.0, ch11out=0.0, ch12out=0.0, battery_voltage=0, battery_current=-1, waypoints_count=0, home_location={lon=129.0921074, lat=35.0766976}, waypoints=[{seq=0, lat=35.0766976, lon=129.0921074, alt=43.8}], ch3out=1000, timestamp=2025-07-18T13:09:16.496109, flight_count=2}
{port=15015, GCS_IP=192.168.0.164, system_id=1, flight_status=0, auto_time=167.0, throttle_active=false, lat=35.0811349, lon=129.0883269, alt=30.546, dist_traveled=4583.874578640248, wp_dist=65535, heading=322, target_heading=322, previous_heading=32200, dist_to_home=601.494880442989, vertical_speed=-0.005861636716872454, ground_speed=25.188066482543945, wind_vel=0.031247379258275032, airspeed=25.00102424621582, gps_hdop=1.21, roll=-0.16, pitch=-2.65, yaw=-37.54, ch3percent=0.0, ch9out=0.0, tot=2601.83, toh=23.88, time_in_air=25.0, throttle_time_in_air=167.143, ch10out=0.0, ch11out=0.0, ch12out=0.0, battery_voltage=0, battery_current=-1, waypoints_count=0, home_location={lon=129.0921074, lat=35.0766976}, waypoints=[{seq=0, lat=35.0766976, lon=129.0921074, alt=43.8}], ch3out=1000, timestamp=2025-07-18T13:09:17.492617, flight_count=2}
{port=15015, GCS_IP=192.168.0.164, system_id=1, flight_status=0, auto_time=167.0, throttle_active=false, lat=35.0812251, lon=129.0882452, alt=30.536, dist_traveled=4596.3591827449045, wp_dist=65535, heading=322, target_heading=322, previous_heading=32200, dist_to_home=613.9743501990793, vertical_speed=-8.380229119211435E-4, ground_speed=25.140697479248047, wind_vel=0.031247379258275032, airspeed=25.007043838500977, gps_hdop=1.21, roll=0.05, pitch=-2.54, yaw=-37.58, ch3percent=0.0, ch9out=0.0, tot=2606.73, toh=24.42, time_in_air=26.0, throttle_time_in_air=167.143, ch10out=0.0, ch11out=0.0, ch12out=0.0, battery_voltage=0, battery_current=-1, waypoints_count=0, home_location={lon=129.0921074, lat=35.0766976}, waypoints=[{seq=0, lat=35.0766976, lon=129.0921074, alt=43.8}], ch3out=1000, timestamp=2025-07-18T13:09:18.492933, flight_count=2}
{port=15015, GCS_IP=192.168.0.164, system_id=1, flight_status=0, auto_time=167.0, throttle_active=false, lat=35.0814977, lon=129.0879985, alt=30.491, dist_traveled=4634.078327151406, wp_dist=65535, heading=322, target_heading=322, previous_heading=32200, dist_to_home=651.6795904371496, vertical_speed=-0.018692070618271828, ground_speed=25.144899368286133, wind_vel=0.031247379258275032, airspeed=25.04852294921875, gps_hdop=1.21, roll=-0.21, pitch=-2.59, yaw=-37.59, ch3percent=0.0, ch9out=0.0, tot=2606.29, toh=25.92, time_in_air=27.0, throttle_time_in_air=167.143, ch10out=0.0, ch11out=0.0, ch12out=0.0, battery_voltage=0, battery_current=-1, waypoints_count=0, home_location={lon=129.0921074, lat=35.0766976}, waypoints=[{seq=0, lat=35.0766976, lon=129.0921074, alt=43.8}], ch3out=1000, timestamp=2025-07-18T13:09:19.495359, flight_count=2}
{port=15015, GCS_IP=192.168.0.164, system_id=1, flight_status=0, auto_time=167.0, throttle_active=false, lat=35.0815881, lon=129.0879166, alt=30.502, dist_traveled=4646.591614871433, wp_dist=65535, heading=322, target_heading=322, previous_heading=32200, dist_to_home=664.1884452247625, vertical_speed=0.05782952532172203, ground_speed=25.161483764648438, wind_vel=0.031247379258275032, airspeed=25.054351806640625, gps_hdop=1.21, roll=-0.14, pitch=-2.5, yaw=-37.6, ch3percent=0.0, ch9out=0.0, tot=2604.58, toh=26.4, time_in_air=28.0, throttle_time_in_air=167.143, ch10out=0.0, ch11out=0.0, ch12out=0.0, battery_voltage=0, battery_current=-1, waypoints_count=0, home_location={lon=129.0921074, lat=35.0766976}, waypoints=[{seq=0, lat=35.0766976, lon=129.0921074, alt=43.8}], ch3out=1000, timestamp=2025-07-18T13:09:20.492846, flight_count=2}
{port=15015, GCS_IP=192.168.0.164, system_id=1, flight_status=0, auto_time=167.0, throttle_active=false, lat=35.08177, lon=129.0877519, alt=30.54, dist_traveled=4671.765206390365, wp_dist=65535, heading=322, target_heading=322, previous_heading=32200, dist_to_home=689.3537858967088, vertical_speed=0.032983846962451935, ground_speed=25.183799743652344, wind_vel=0.031247379258275032, airspeed=25.033979415893555, gps_hdop=1.21, roll=-0.15, pitch=-2.64, yaw=-37.58, ch3percent=0.0, ch9out=0.0, tot=2602.27, toh=27.37, time_in_air=29.0, throttle_time_in_air=167.143, ch10out=0.0, ch11out=0.0, ch12out=0.0, battery_voltage=0, battery_current=-1, waypoints_count=0, home_location={lon=129.0921074, lat=35.0766976}, waypoints=[{seq=0, lat=35.0766976, lon=129.0921074, alt=43.8}], ch3out=1000, timestamp=2025-07-18T13:09:21.497296, flight_count=2}
{port=15015, GCS_IP=192.168.0.164, system_id=1, flight_status=0, auto_time=167.0, throttle_active=false, lat=35.0819525, lon=129.0875867, alt=30.591, dist_traveled=4697.019469806242, wp_dist=65535, heading=322, target_heading=322, previous_heading=32200, dist_to_home=714.6004341889142, vertical_speed=0.014713279902935028, ground_speed=25.173011779785156, wind_vel=0.031247379258275032, airspeed=25.013057708740234, gps_hdop=1.21, roll=0.09, pitch=-2.61, yaw=-37.53, ch3percent=0.0, ch9out=0.0, tot=2603.38, toh=28.39, time_in_air=30.0, throttle_time_in_air=167.143, ch10out=0.0, ch11out=0.0, ch12out=0.0, battery_voltage=0, battery_current=-1, waypoints_count=0, home_location={lon=129.0921074, lat=35.0766976}, waypoints=[{seq=0, lat=35.0766976, lon=129.0921074, alt=43.8}], ch3out=1000, timestamp=2025-07-18T13:09:22.497304, flight_count=2}
{port=15015, GCS_IP=192.168.0.164, system_id=1, flight_status=0, auto_time=167.0, throttle_active=false, lat=35.0821339, lon=129.0874229, alt=30.632, dist_traveled=4722.099616649326, wp_dist=65535, heading=322, target_heading=322, previous_heading=32200, dist_to_home=739.6742064126213, vertical_speed=0.019044749438762665, ground_speed=25.180936813354492, wind_vel=0.031247379258275032, airspeed=24.95914077758789, gps_hdop=1.21, roll=-0.3, pitch=-2.6, yaw=-37.62, ch3percent=0.0, ch9out=0.0, tot=2602.56, toh=29.37, time_in_air=31.0, throttle_time_in_air=167.143, ch10out=0.0, ch11out=0.0, ch12out=0.0, battery_voltage=0, battery_current=-1, waypoints_count=0, home_location={lon=129.0921074, lat=35.0766976}, waypoints=[{seq=0, lat=35.0766976, lon=129.0921074, alt=43.8}], ch3out=1000, timestamp=2025-07-18T13:09:23.496116, flight_count=2}
{port=15015, GCS_IP=192.168.0.164, system_id=1, flight_status=0, auto_time=167.0, throttle_active=false, lat=35.0823162, lon=129.0872578, alt=30.65, dist_traveled=4747.330554407204, wp_dist=65535, heading=322, target_heading=322, previous_heading=32200, dist_to_home=764.8983659574609, vertical_speed=0.02882557176053524, ground_speed=25.179828643798828, wind_vel=0.031247379258275032, airspeed=24.966835021972656, gps_hdop=1.21, roll=0.05, pitch=-2.59, yaw=-37.57, ch3percent=0.0, ch9out=0.0, tot=2602.68, toh=30.38, time_in_air=32.0, throttle_time_in_air=167.143, ch10out=0.0, ch11out=0.0, ch12out=0.0, battery_voltage=0, battery_current=-1, waypoints_count=0, home_location={lon=129.0921074, lat=35.0766976}, waypoints=[{seq=0, lat=35.0766976, lon=129.0921074, alt=43.8}], ch3out=1000, timestamp=2025-07-18T13:09:24.496074, flight_count=2}
{port=15015, GCS_IP=192.168.0.164, system_id=1, flight_status=0, auto_time=167.0, throttle_active=false, lat=35.0824971, lon=129.0870941, alt=30.644, dist_traveled=4772.360552923561, wp_dist=65535, heading=322, target_heading=322, previous_heading=32200, dist_to_home=789.9222808281958, vertical_speed=-0.03079032152891159, ground_speed=25.144779205322266, wind_vel=0.031247379258275032, airspeed=24.932754516601562, gps_hdop=1.21, roll=-0.08, pitch=-2.63, yaw=-37.55, ch3percent=0.0, ch9out=0.0, tot=2606.31, toh=31.41, time_in_air=33.0, throttle_time_in_air=167.143, ch10out=0.0, ch11out=0.0, ch12out=0.0, battery_voltage=0, battery_current=-1, waypoints_count=0, home_location={lon=129.0921074, lat=35.0766976}, waypoints=[{seq=0, lat=35.0766976, lon=129.0921074, alt=43.8}], ch3out=1000, timestamp=2025-07-18T13:09:25.497248, flight_count=2}
{port=15015, GCS_IP=192.168.0.164, system_id=1, flight_status=0, auto_time=167.0, throttle_active=false, lat=35.0826781, lon=129.0869305, alt=30.61, dist_traveled=4797.394056620239, wp_dist=65535, heading=322, target_heading=322, previous_heading=32200, dist_to_home=814.9503643141862, vertical_speed=0.008549606427550316, ground_speed=25.17236328125, wind_vel=0.031247379258275032, airspeed=24.988513946533203, gps_hdop=1.21, roll=-0.17, pitch=-2.6, yaw=-37.49, ch3percent=0.0, ch9out=0.0, tot=2603.45, toh=32.37, time_in_air=34.0, throttle_time_in_air=167.143, ch10out=0.0, ch11out=0.0, ch12out=0.0, battery_voltage=0, battery_current=-1, waypoints_count=0, home_location={lon=129.0921074, lat=35.0766976}, waypoints=[{seq=0, lat=35.0766976, lon=129.0921074, alt=43.8}], ch3out=1000, timestamp=2025-07-18T13:09:26.497233, flight_count=2}
{port=15015, GCS_IP=192.168.0.164, system_id=1, flight_status=0, auto_time=167.0, throttle_active=false, lat=35.0828603, lon=129.0867658, alt=30.591, dist_traveled=4822.594339572095, wp_dist=65535, heading=322, target_heading=322, previous_heading=32200, dist_to_home=840.1454961601033, vertical_speed=0.041778601706027985, ground_speed=25.2050838470459, wind_vel=0.031247379258275032, airspeed=24.993322372436523, gps_hdop=1.21, roll=-0.04, pitch=-2.54, yaw=-37.54, ch3percent=0.0, ch9out=0.0, tot=2600.07, toh=33.33, time_in_air=35.0, throttle_time_in_air=167.143, ch10out=0.0, ch11out=0.0, ch12out=0.0, battery_voltage=0, battery_current=-1, waypoints_count=0, home_location={lon=129.0921074, lat=35.0766976}, waypoints=[{seq=0, lat=35.0766976, lon=129.0921074, alt=43.8}], ch3out=1000, timestamp=2025-07-18T13:09:27.494672, flight_count=2}
{port=15015, GCS_IP=192.168.0.164, system_id=1, flight_status=0, auto_time=167.0, throttle_active=false, lat=35.0830422, lon=129.0866014, alt=30.619, dist_traveled=4847.751550171167, wp_dist=65535, heading=322, target_heading=322, previous_heading=32200, dist_to_home=865.2979056760475, vertical_speed=0.025709154084324837, ground_speed=25.218088150024414, wind_vel=0.031247379258275032, airspeed=25.03612518310547, gps_hdop=1.21, roll=-0.12, pitch=-2.53, yaw=-37.47, ch3percent=0.0, ch9out=0.0, tot=2598.73, toh=34.31, time_in_air=36.0, throttle_time_in_air=167.143, ch10out=0.0, ch11out=0.0, ch12out=0.0, battery_voltage=0, battery_current=-1, waypoints_count=0, home_location={lon=129.0921074, lat=35.0766976}, waypoints=[{seq=0, lat=35.0766976, lon=129.0921074, alt=43.8}], ch3out=1000, timestamp=2025-07-18T13:09:28.493069, flight_count=2}
{port=15015, GCS_IP=192.168.0.164, system_id=1, flight_status=0, auto_time=167.0, throttle_active=false, lat=35.0832241, lon=129.0864368, alt=30.65, dist_traveled=4872.919566623608, wp_dist=65535, heading=322, target_heading=322, previous_heading=32200, dist_to_home=890.4611138989954, vertical_speed=0.01235255878418684, ground_speed=25.200244903564453, wind_vel=0.031247379258275032, airspeed=25.008398056030273, gps_hdop=1.21, roll=-0.03, pitch=-2.53, yaw=-37.47, ch3percent=0.0, ch9out=0.0, tot=2600.57, toh=35.34, time_in_air=37.0, throttle_time_in_air=167.143, ch10out=0.0, ch11out=0.0, ch12out=0.0, battery_voltage=0, battery_current=-1, waypoints_count=0, home_location={lon=129.0921074, lat=35.0766976}, waypoints=[{seq=0, lat=35.0766976, lon=129.0921074, alt=43.8}], ch3out=1000, timestamp=2025-07-18T13:09:29.494508, flight_count=2}
{port=15015, GCS_IP=192.168.0.164, system_id=1, flight_status=0, auto_time=167.0, throttle_active=false, lat=35.0834963, lon=129.0861906, alt=30.673, dist_traveled=4910.575564903674, wp_dist=65535, heading=322, target_heading=322, previous_heading=32200, dist_to_home=928.110557743286, vertical_speed=0.021627625450491905, ground_speed=25.186403274536133, wind_vel=0.031247379258275032, airspeed=25.025545120239258, gps_hdop=1.21, roll=-0.18, pitch=-2.58, yaw=-37.47, ch3percent=0.0, ch9out=0.0, tot=2602.0, toh=36.85, time_in_air=38.0, throttle_time_in_air=167.143, ch10out=0.0, ch11out=0.0, ch12out=0.0, battery_voltage=0, battery_current=-1, waypoints_count=0, home_location={lon=129.0921074, lat=35.0766976}, waypoints=[{seq=0, lat=35.0766976, lon=129.0921074, alt=43.8}], ch3out=1000, timestamp=2025-07-18T13:09:30.497195, flight_count=2}
{port=15015, GCS_IP=192.168.0.164, system_id=1, flight_status=0, auto_time=167.0, throttle_active=false, lat=35.0835875, lon=129.0861081, alt=30.684, dist_traveled=4923.192721374908, wp_dist=65535, heading=322, target_heading=322, previous_heading=32200, dist_to_home=940.7256211842713, vertical_speed=-0.04229425638914108, ground_speed=25.181446075439453, wind_vel=0.031247379258275032, airspeed=24.98285484313965, gps_hdop=1.21, roll=-0.1, pitch=-2.73, yaw=-37.53, ch3percent=0.0, ch9out=0.0, tot=2602.51, toh=37.36, time_in_air=39.0, throttle_time_in_air=167.143, ch10out=0.0, ch11out=0.0, ch12out=0.0, battery_voltage=0, battery_current=-1, waypoints_count=0, home_location={lon=129.0921074, lat=35.0766976}, waypoints=[{seq=0, lat=35.0766976, lon=129.0921074, alt=43.8}], ch3out=1000, timestamp=2025-07-18T13:09:31.4927, flight_count=2}
{port=15015, GCS_IP=192.168.0.164, system_id=1, flight_status=0, auto_time=167.0, throttle_active=false, lat=35.0837689, lon=129.0859437, alt=30.685, dist_traveled=4948.305174052959, wp_dist=65535, heading=322, target_heading=322, previous_heading=32200, dist_to_home=965.8336695136865, vertical_speed=-0.0049707829020917416, ground_speed=25.185447692871094, wind_vel=0.031247379258275032, airspeed=24.99158477783203, gps_hdop=1.21, roll=-0.17, pitch=-2.59, yaw=-37.42, ch3percent=0.0, ch9out=0.0, tot=2602.1, toh=38.35, time_in_air=40.0, throttle_time_in_air=167.143, ch10out=0.0, ch11out=0.0, ch12out=0.0, battery_voltage=0, battery_current=-1, waypoints_count=0, home_location={lon=129.0921074, lat=35.0766976}, waypoints=[{seq=0, lat=35.0766976, lon=129.0921074, alt=43.8}], ch3out=1000, timestamp=2025-07-18T13:09:32.492656, flight_count=2}
{port=15015, GCS_IP=192.168.0.164, system_id=1, flight_status=0, auto_time=167.0, throttle_active=false, lat=35.0839507, lon=129.0857791, alt=30.676, dist_traveled=4973.4641757353975, wp_dist=65535, heading=322, target_heading=322, previous_heading=32200, dist_to_home=990.9886949319886, vertical_speed=0.0027255897875875235, ground_speed=25.18863296508789, wind_vel=0.031247379258275032, airspeed=24.959430694580078, gps_hdop=1.21, roll=-0.31, pitch=-2.52, yaw=-37.42, ch3percent=0.0, ch9out=0.0, tot=2601.77, toh=39.34, time_in_air=41.0, throttle_time_in_air=167.143, ch10out=0.0, ch11out=0.0, ch12out=0.0, battery_voltage=0, battery_current=-1, waypoints_count=0, home_location={lon=129.0921074, lat=35.0766976}, waypoints=[{seq=0, lat=35.0766976, lon=129.0921074, alt=43.8}], ch3out=1000, timestamp=2025-07-18T13:09:33.497206, flight_count=2}
{port=15015, GCS_IP=192.168.0.164, system_id=1, flight_status=0, auto_time=167.0, throttle_active=false, lat=35.0841323, lon=129.0856146, alt=30.672, dist_traveled=4998.599872440832, wp_dist=65535, heading=322, target_heading=322, previous_heading=32200, dist_to_home=1016.1205147075141, vertical_speed=-0.01792999356985092, ground_speed=25.187437057495117, wind_vel=0.031247379258275032, airspeed=25.006637573242188, gps_hdop=1.21, roll=-0.07, pitch=-2.65, yaw=-37.43, ch3percent=0.0, ch9out=0.0, tot=2601.89, toh=40.34, time_in_air=42.0, throttle_time_in_air=167.143, ch10out=0.0, ch11out=0.0, ch12out=0.0, battery_voltage=0, battery_current=-1, waypoints_count=0, home_location={lon=129.0921074, lat=35.0766976}, waypoints=[{seq=0, lat=35.0766976, lon=129.0921074, alt=43.8}], ch3out=1000, timestamp=2025-07-18T13:09:34.497197, flight_count=2}
{port=15015, GCS_IP=192.168.0.164, system_id=1, flight_status=0, auto_time=167.0, throttle_active=false, lat=35.0843137, lon=129.0854502, alt=30.662, dist_traveled=5023.712265606806, wp_dist=65535, heading=322, target_heading=322, previous_heading=32200, dist_to_home=1041.2291215028374, vertical_speed=0.013775736093521118, ground_speed=25.17534065246582, wind_vel=0.031247379258275032, airspeed=24.96855354309082, gps_hdop=1.21, roll=0.0, pitch=-2.58, yaw=-37.43, ch3percent=0.0, ch9out=0.0, tot=2603.14, toh=41.36, time_in_air=43.0, throttle_time_in_air=167.143, ch10out=0.0, ch11out=0.0, ch12out=0.0, battery_voltage=0, battery_current=-1, waypoints_count=0, home_location={lon=129.0921074, lat=35.0766976}, waypoints=[{seq=0, lat=35.0766976, lon=129.0921074, alt=43.8}], ch3out=1000, timestamp=2025-07-18T13:09:35.495449, flight_count=2}
{port=15015, GCS_IP=192.168.0.164, system_id=1, flight_status=0, auto_time=167.0, throttle_active=false, lat=35.0844951, lon=129.0852859, alt=30.67, dist_traveled=5048.819219813918, wp_dist=65535, heading=322, target_heading=322, previous_heading=32200, dist_to_home=1066.3325909313837, vertical_speed=-0.040750663727521896, ground_speed=25.175180435180664, wind_vel=0.031247379258275032, airspeed=24.99500274658203, gps_hdop=1.21, roll=-0.37, pitch=-2.65, yaw=-37.45, ch3percent=0.0, ch9out=0.0, tot=2603.16, toh=42.36, time_in_air=44.0, throttle_time_in_air=167.143, ch10out=0.0, ch11out=0.0, ch12out=0.0, battery_voltage=0, battery_current=-1, waypoints_count=0, home_location={lon=129.0921074, lat=35.0766976}, waypoints=[{seq=0, lat=35.0766976, lon=129.0921074, alt=43.8}], ch3out=1000, timestamp=2025-07-18T13:09:36.49718, flight_count=2}
{port=15015, GCS_IP=192.168.0.164, system_id=1, flight_status=0, auto_time=167.0, throttle_active=false, lat=35.084676, lon=129.0851219, alt=30.658, dist_traveled=5073.865235908698, wp_dist=65535, heading=322, target_heading=322, previous_heading=32200, dist_to_home=1091.3751093772985, vertical_speed=-0.01492942962795496, ground_speed=25.124176025390625, wind_vel=0.031247379258275032, airspeed=24.9909610748291, gps_hdop=1.21, roll=0.08, pitch=-2.56, yaw=-37.27, ch3percent=0.0, ch9out=0.0, tot=2608.44, toh=43.44, time_in_air=45.0, throttle_time_in_air=167.143, ch10out=0.0, ch11out=0.0, ch12out=0.0, battery_voltage=0, battery_current=-1, waypoints_count=0, home_location={lon=129.0921074, lat=35.0766976}, waypoints=[{seq=0, lat=35.0766976, lon=129.0921074, alt=43.8}], ch3out=1000, timestamp=2025-07-18T13:09:37.496108, flight_count=2}
{port=15015, GCS_IP=192.168.0.164, system_id=1, flight_status=0, auto_time=167.0, throttle_active=false, lat=35.0848564, lon=129.0849586, alt=30.65, dist_traveled=5098.828637806841, wp_dist=65535, heading=322, target_heading=322, previous_heading=32200, dist_to_home=1116.3354671590369, vertical_speed=-0.007320106029510498, ground_speed=25.112682342529297, wind_vel=0.031247379258275032, airspeed=24.998167037963867, gps_hdop=1.21, roll=-0.28, pitch=-2.51, yaw=-37.36, ch3percent=0.0, ch9out=0.0, tot=2609.64, toh=44.45, time_in_air=46.0, throttle_time_in_air=167.143, ch10out=0.0, ch11out=0.0, ch12out=0.0, battery_voltage=0, battery_current=-1, waypoints_count=0, home_location={lon=129.0921074, lat=35.0766976}, waypoints=[{seq=0, lat=35.0766976, lon=129.0921074, alt=43.8}], ch3out=1000, timestamp=2025-07-18T13:09:38.49712, flight_count=2}
{port=15015, GCS_IP=192.168.0.164, system_id=1, flight_status=0, auto_time=167.0, throttle_active=false, lat=35.0850379, lon=129.0847942, alt=30.652, dist_traveled=5123.949884157669, wp_dist=65535, heading=322, target_heading=322, previous_heading=32200, dist_to_home=1141.4536693399205, vertical_speed=-0.008391546085476875, ground_speed=25.142885208129883, wind_vel=0.031247379258275032, airspeed=25.05051040649414, gps_hdop=1.21, roll=-0.04, pitch=-2.62, yaw=-37.26, ch3percent=0.0, ch9out=0.0, tot=2606.5, toh=45.4, time_in_air=47.0, throttle_time_in_air=167.143, ch10out=0.0, ch11out=0.0, ch12out=0.0, battery_voltage=0, battery_current=-1, waypoints_count=0, home_location={lon=129.0921074, lat=35.0766976}, waypoints=[{seq=0, lat=35.0766976, lon=129.0921074, alt=43.8}], ch3out=1000, timestamp=2025-07-18T13:09:39.497161, flight_count=2}
{port=15015, GCS_IP=192.168.0.164, system_id=1, flight_status=0, auto_time=167.0, throttle_active=false, lat=35.0852197, lon=129.0846293, alt=30.68, dist_traveled=5149.125006712328, wp_dist=65535, heading=322, target_heading=322, previous_heading=32200, dist_to_home=1166.6256170336078, vertical_speed=0.043583791702985764, ground_speed=25.157163619995117, wind_vel=0.031247379258275032, airspeed=25.02195167541504, gps_hdop=1.21, roll=-0.02, pitch=-2.45, yaw=-37.35, ch3percent=0.0, ch9out=0.0, tot=2605.02, toh=46.37, time_in_air=48.0, throttle_time_in_air=167.143, ch10out=0.0, ch11out=0.0, ch12out=0.0, battery_voltage=0, battery_current=-1, waypoints_count=0, home_location={lon=129.0921074, lat=35.0766976}, waypoints=[{seq=0, lat=35.0766976, lon=129.0921074, alt=43.8}], ch3out=1000, timestamp=2025-07-18T13:09:40.495045, flight_count=2}
{port=15015, GCS_IP=192.168.0.164, system_id=1, flight_status=0, auto_time=167.0, throttle_active=false, lat=35.0854013, lon=129.0844646, alt=30.722, dist_traveled=5174.27140575917, wp_dist=65535, heading=322, target_heading=322, previous_heading=32200, dist_to_home=1191.7690006369064, vertical_speed=0.016383986920118332, ground_speed=25.155651092529297, wind_vel=0.031247379258275032, airspeed=24.991588592529297, gps_hdop=1.21, roll=0.13, pitch=-2.53, yaw=-37.2, ch3percent=0.0, ch9out=0.0, tot=2605.18, toh=47.38, time_in_air=49.0, throttle_time_in_air=167.143, ch10out=0.0, ch11out=0.0, ch12out=0.0, battery_voltage=0, battery_current=-1, waypoints_count=0, home_location={lon=129.0921074, lat=35.0766976}, waypoints=[{seq=0, lat=35.0766976, lon=129.0921074, alt=43.8}], ch3out=1000, timestamp=2025-07-18T13:09:41.494695, flight_count=2}
{port=15015, GCS_IP=192.168.0.164, system_id=1, flight_status=0, auto_time=167.0, throttle_active=false, lat=35.0855831, lon=129.0843003, alt=30.749, dist_traveled=5199.413988675793, wp_dist=65535, heading=322, target_heading=322, previous_heading=32200, dist_to_home=1216.9092963512585, vertical_speed=-0.012685283087193966, ground_speed=25.15925407409668, wind_vel=0.031247379258275032, airspeed=24.987455368041992, gps_hdop=1.21, roll=-0.11, pitch=-2.62, yaw=-37.18, ch3percent=0.0, ch9out=0.0, tot=2604.81, toh=48.37, time_in_air=50.0, throttle_time_in_air=167.143, ch10out=0.0, ch11out=0.0, ch12out=0.0, battery_voltage=0, battery_current=-1, waypoints_count=0, home_location={lon=129.0921074, lat=35.0766976}, waypoints=[{seq=0, lat=35.0766976, lon=129.0921074, alt=43.8}], ch3out=1000, timestamp=2025-07-18T13:09:42.492541, flight_count=2}
{port=15015, GCS_IP=192.168.0.164, system_id=1, flight_status=0, auto_time=167.0, throttle_active=false, lat=35.0857649, lon=129.0841362, alt=30.748, dist_traveled=5224.545735570259, wp_dist=65535, heading=322, target_heading=322, previous_heading=32200, dist_to_home=1242.0390375979118, vertical_speed=0.023552773520350456, ground_speed=25.186153411865234, wind_vel=0.031247379258275032, airspeed=24.9695987701416, gps_hdop=1.21, roll=-0.42, pitch=-2.59, yaw=-37.13, ch3percent=0.0, ch9out=0.0, tot=2602.02, toh=49.31, time_in_air=51.0, throttle_time_in_air=167.143, ch10out=0.0, ch11out=0.0, ch12out=0.0, battery_voltage=0, battery_current=-1, waypoints_count=0, home_location={lon=129.0921074, lat=35.0766976}, waypoints=[{seq=0, lat=35.0766976, lon=129.0921074, alt=43.8}], ch3out=1000, timestamp=2025-07-18T13:09:43.4939, flight_count=2}
{port=15015, GCS_IP=192.168.0.164, system_id=1, flight_status=0, auto_time=167.0, throttle_active=false, lat=35.0859469, lon=129.083972, alt=30.757, dist_traveled=5249.700757726017, wp_dist=65535, heading=322, target_heading=322, previous_heading=32200, dist_to_home=1267.1922042934114, vertical_speed=0.004434835631400347, ground_speed=25.19937515258789, wind_vel=0.031247379258275032, airspeed=24.984140396118164, gps_hdop=1.21, roll=-0.23, pitch=-2.66, yaw=-37.23, ch3percent=0.0, ch9out=0.0, tot=2600.66, toh=50.29, time_in_air=52.0, throttle_time_in_air=167.143, ch10out=0.0, ch11out=0.0, ch12out=0.0, battery_voltage=0, battery_current=-1, waypoints_count=0, home_location={lon=129.0921074, lat=35.0766976}, waypoints=[{seq=0, lat=35.0766976, lon=129.0921074, alt=43.8}], ch3out=1000, timestamp=2025-07-18T13:09:44.497081, flight_count=2}
{port=15015, GCS_IP=192.168.0.164, system_id=1, flight_status=0, auto_time=167.0, throttle_active=false, lat=35.0861287, lon=129.0838076, alt=30.772, dist_traveled=5274.848692443104, wp_dist=65535, heading=322, target_heading=322, previous_heading=32200, dist_to_home=1292.3380136771723, vertical_speed=-0.010555766522884369, ground_speed=25.200563430786133, wind_vel=0.031247379258275032, airspeed=24.991558074951172, gps_hdop=1.21, roll=-0.22, pitch=-2.64, yaw=-37.14, ch3percent=0.0, ch9out=0.0, tot=2600.54, toh=51.28, time_in_air=53.0, throttle_time_in_air=167.143, ch10out=0.0, ch11out=0.0, ch12out=0.0, battery_voltage=0, battery_current=-1, waypoints_count=0, home_location={lon=129.0921074, lat=35.0766976}, waypoints=[{seq=0, lat=35.0766976, lon=129.0921074, alt=43.8}], ch3out=1000, timestamp=2025-07-18T13:09:45.492503, flight_count=2}
{port=15015, GCS_IP=192.168.0.164, system_id=1, flight_status=0, auto_time=167.0, throttle_active=false, lat=35.0863096, lon=129.083644, alt=30.77, dist_traveled=5299.872862990203, wp_dist=65535, heading=322, target_heading=322, previous_heading=32200, dist_to_home=1317.360137927253, vertical_speed=-0.026143448427319527, ground_speed=25.151185989379883, wind_vel=0.031247379258275032, airspeed=24.95347785949707, gps_hdop=1.21, roll=-0.11, pitch=-2.66, yaw=-37.22, ch3percent=0.0, ch9out=0.0, tot=2605.64, toh=52.38, time_in_air=54.0, throttle_time_in_air=167.143, ch10out=0.0, ch11out=0.0, ch12out=0.0, battery_voltage=0, battery_current=-1, waypoints_count=0, home_location={lon=129.0921074, lat=35.0766976}, waypoints=[{seq=0, lat=35.0766976, lon=129.0921074, alt=43.8}], ch3out=1000, timestamp=2025-07-18T13:09:46.497085, flight_count=2}
{port=15015, GCS_IP=192.168.0.164, system_id=1, flight_status=0, auto_time=167.0, throttle_active=false, lat=35.0864904, lon=129.0834803, alt=30.766, dist_traveled=5324.893492179306, wp_dist=65535, heading=322, target_heading=322, previous_heading=32200, dist_to_home=1342.3786213218277, vertical_speed=-0.03782999515533447, ground_speed=25.157827377319336, wind_vel=0.031247379258275032, airspeed=25.003259658813477, gps_hdop=1.21, roll=-0.23, pitch=-2.66, yaw=-37.15, ch3percent=0.0, ch9out=0.0, tot=2604.95, toh=53.36, time_in_air=55.0, throttle_time_in_air=167.143, ch10out=0.0, ch11out=0.0, ch12out=0.0, battery_voltage=0, battery_current=-1, waypoints_count=0, home_location={lon=129.0921074, lat=35.0766976}, waypoints=[{seq=0, lat=35.0766976, lon=129.0921074, alt=43.8}], ch3out=1000, timestamp=2025-07-18T13:09:47.497065, flight_count=2}
{port=15015, GCS_IP=192.168.0.164, system_id=1, flight_status=0, auto_time=167.0, throttle_active=false, lat=35.0866722, lon=129.0833157, alt=30.73, dist_traveled=5350.052196386663, wp_dist=65535, heading=322, target_heading=322, previous_heading=32200, dist_to_home=1367.5352529712843, vertical_speed=0.05439606308937073, ground_speed=25.187641143798828, wind_vel=0.031247379258275032, airspeed=25.036775588989258, gps_hdop=1.21, roll=-0.07, pitch=-2.5, yaw=-37.24, ch3percent=0.0, ch9out=0.0, tot=2601.87, toh=54.29, time_in_air=56.0, throttle_time_in_air=167.143, ch10out=0.0, ch11out=0.0, ch12out=0.0, battery_voltage=0, battery_current=-1, waypoints_count=0, home_location={lon=129.0921074, lat=35.0766976}, waypoints=[{seq=0, lat=35.0766976, lon=129.0921074, alt=43.8}], ch3out=1000, timestamp=2025-07-18T13:09:48.49242, flight_count=2}
{port=15015, GCS_IP=192.168.0.164, system_id=1, flight_status=0, auto_time=167.0, throttle_active=false, lat=35.0868544, lon=129.0831506, alt=30.767, dist_traveled=5375.273703658505, wp_dist=65535, heading=322, target_heading=322, previous_heading=32200, dist_to_home=1392.7546307348096, vertical_speed=0.06202986091375351, ground_speed=25.206296920776367, wind_vel=0.031247379258275032, airspeed=25.023590087890625, gps_hdop=1.21, roll=-0.2, pitch=-2.48, yaw=-37.19, ch3percent=0.0, ch9out=0.0, tot=2599.95, toh=55.25, time_in_air=57.0, throttle_time_in_air=167.143, ch10out=0.0, ch11out=0.0, ch12out=0.0, battery_voltage=0, battery_current=-1, waypoints_count=0, home_location={lon=129.0921074, lat=35.0766976}, waypoints=[{seq=0, lat=35.0766976, lon=129.0921074, alt=43.8}], ch3out=1000, timestamp=2025-07-18T13:09:49.492443, flight_count=2}
{port=15015, GCS_IP=192.168.0.164, system_id=1, flight_status=0, auto_time=167.0, throttle_active=false, lat=35.0870362, lon=129.0829857, alt=30.806, dist_traveled=5400.448627062169, wp_dist=65535, heading=322, target_heading=322, previous_heading=32200, dist_to_home=1417.9273520785855, vertical_speed=0.03656921163201332, ground_speed=25.203214645385742, wind_vel=0.031247379258275032, airspeed=24.99077033996582, gps_hdop=1.21, roll=-0.01, pitch=-2.57, yaw=-37.22, ch3percent=0.0, ch9out=0.0, tot=2600.26, toh=56.26, time_in_air=58.0, throttle_time_in_air=167.143, ch10out=0.0, ch11out=0.0, ch12out=0.0, battery_voltage=0, battery_current=-1, waypoints_count=0, home_location={lon=129.0921074, lat=35.0766976}, waypoints=[{seq=0, lat=35.0766976, lon=129.0921074, alt=43.8}], ch3out=1000, timestamp=2025-07-18T13:09:50.492408, flight_count=2}
{port=15015, GCS_IP=192.168.0.164, system_id=1, flight_status=0, auto_time=167.0, throttle_active=false, lat=35.0872181, lon=129.0828206, alt=30.814, dist_traveled=5425.643306300555, wp_dist=65535, heading=322, target_heading=322, previous_heading=32200, dist_to_home=1443.119801257645, vertical_speed=0.023430468514561653, ground_speed=25.18950653076172, wind_vel=0.031247379258275032, airspeed=24.98969078063965, gps_hdop=1.21, roll=-0.08, pitch=-2.56, yaw=-37.14, ch3percent=0.0, ch9out=0.0, tot=2601.68, toh=57.29, time_in_air=59.0, throttle_time_in_air=167.143, ch10out=0.0, ch11out=0.0, ch12out=0.0, battery_voltage=0, battery_current=-1, waypoints_count=0, home_location={lon=129.0921074, lat=35.0766976}, waypoints=[{seq=0, lat=35.0766976, lon=129.0921074, alt=43.8}], ch3out=1000, timestamp=2025-07-18T13:09:51.492386, flight_count=2}
{port=15015, GCS_IP=192.168.0.164, system_id=1, flight_status=0, auto_time=167.0, throttle_active=false, lat=35.0873986, lon=129.0826572, alt=30.826, dist_traveled=5450.620783572335, wp_dist=65535, heading=322, target_heading=322, previous_heading=32200, dist_to_home=1468.0955312209428, vertical_speed=-0.012730737216770649, ground_speed=25.138826370239258, wind_vel=0.031247379258275032, airspeed=24.944499969482422, gps_hdop=1.21, roll=-0.04, pitch=-2.65, yaw=-37.07, ch3percent=0.0, ch9out=0.0, tot=2606.92, toh=58.4, time_in_air=60.0, throttle_time_in_air=167.143, ch10out=0.0, ch11out=0.0, ch12out=0.0, battery_voltage=0, battery_current=-1, waypoints_count=0, home_location={lon=129.0921074, lat=35.0766976}, waypoints=[{seq=0, lat=35.0766976, lon=129.0921074, alt=43.8}], ch3out=1000, timestamp=2025-07-18T13:09:52.497079, flight_count=2}
{port=15015, GCS_IP=192.168.0.164, system_id=1, flight_status=0, auto_time=167.0, throttle_active=false, lat=35.0875798, lon=129.0824934, alt=30.817, dist_traveled=5475.682456372104, wp_dist=65535, heading=323, target_heading=323, previous_heading=32300, dist_to_home=1493.155701584757, vertical_speed=-0.0017142752185463905, ground_speed=25.157920837402344, wind_vel=0.031247379258275032, airspeed=25.01239013671875, gps_hdop=1.21, roll=-0.12, pitch=-2.59, yaw=-36.98, ch3percent=0.0, ch9out=0.0, tot=2604.94, toh=59.35, time_in_air=61.0, throttle_time_in_air=167.143, ch10out=0.0, ch11out=0.0, ch12out=0.0, battery_voltage=0, battery_current=-1, waypoints_count=0, home_location={lon=129.0921074, lat=35.0766976}, waypoints=[{seq=0, lat=35.0766976, lon=129.0921074, alt=43.8}], ch3out=1000, timestamp=2025-07-18T13:09:53.493395, flight_count=2}
{port=15015, GCS_IP=192.168.0.164, system_id=1, flight_status=0, auto_time=167.0, throttle_active=false, lat=35.0877614, lon=129.0823294, alt=30.816, dist_traveled=5500.7906925082925, wp_dist=65535, heading=323, target_heading=323, previous_heading=32300, dist_to_home=1518.262606405284, vertical_speed=0.0031008729711174965, ground_speed=25.16202163696289, wind_vel=0.031247379258275032, airspeed=25.003570556640625, gps_hdop=1.21, roll=-0.3, pitch=-2.56, yaw=-36.98, ch3percent=0.0, ch9out=0.0, tot=2604.52, toh=60.34, time_in_air=62.0, throttle_time_in_air=167.143, ch10out=0.0, ch11out=0.0, ch12out=0.0, battery_voltage=0, battery_current=-1, waypoints_count=0, home_location={lon=129.0921074, lat=35.0766976}, waypoints=[{seq=0, lat=35.0766976, lon=129.0921074, alt=43.8}], ch3out=1000, timestamp=2025-07-18T13:09:54.495048, flight_count=2}
{port=15015, GCS_IP=192.168.0.164, system_id=1, flight_status=0, auto_time=167.0, throttle_active=false, lat=35.0879436, lon=129.082165, alt=30.834, dist_traveled=5525.97419718015, wp_dist=65535, heading=323, target_heading=323, previous_heading=32300, dist_to_home=1543.4449221070897, vertical_speed=0.015503211878240108, ground_speed=25.17418098449707, wind_vel=0.031247379258275032, airspeed=25.007274627685547, gps_hdop=1.21, roll=-0.16, pitch=-2.54, yaw=-36.98, ch3percent=0.0, ch9out=0.0, tot=2603.26, toh=61.31, time_in_air=63.0, throttle_time_in_air=167.143, ch10out=0.0, ch11out=0.0, ch12out=0.0, battery_voltage=0, battery_current=-1, waypoints_count=0, home_location={lon=129.0921074, lat=35.0766976}, waypoints=[{seq=0, lat=35.0766976, lon=129.0921074, alt=43.8}], ch3out=1000, timestamp=2025-07-18T13:09:55.492742, flight_count=2}
{port=15015, GCS_IP=192.168.0.164, system_id=1, flight_status=0, auto_time=167.0, throttle_active=false, lat=35.0881254, lon=129.0820008, alt=30.849, dist_traveled=5551.111094124372, wp_dist=65535, heading=322, target_heading=322, previous_heading=32200, dist_to_home=1568.5805566128095, vertical_speed=-1.4652710524387658E-4, ground_speed=25.18391990661621, wind_vel=0.031247379258275032, airspeed=24.96107292175293, gps_hdop=1.21, roll=-0.25, pitch=-2.61, yaw=-37.01, ch3percent=0.0, ch9out=0.0, tot=2602.26, toh=62.29, time_in_air=64.0, throttle_time_in_air=167.143, ch10out=0.0, ch11out=0.0, ch12out=0.0, battery_voltage=0, battery_current=-1, waypoints_count=0, home_location={lon=129.0921074, lat=35.0766976}, waypoints=[{seq=0, lat=35.0766976, lon=129.0921074, alt=43.8}], ch3out=1000, timestamp=2025-07-18T13:09:56.49702, flight_count=2}
{port=15015, GCS_IP=192.168.0.164, system_id=1, flight_status=0, auto_time=167.0, throttle_active=false, lat=35.0883078, lon=129.0818358, alt=30.859, dist_traveled=5576.344895136764, wp_dist=65535, heading=322, target_heading=322, previous_heading=32200, dist_to_home=1593.8129393674328, vertical_speed=0.03460749238729477, ground_speed=25.201725006103516, wind_vel=0.031247379258275032, airspeed=24.981855392456055, gps_hdop=1.21, roll=-0.25, pitch=-2.57, yaw=-37.09, ch3percent=0.0, ch9out=0.0, tot=2600.42, toh=63.24, time_in_air=65.0, throttle_time_in_air=167.143, ch10out=0.0, ch11out=0.0, ch12out=0.0, battery_voltage=0, battery_current=-1, waypoints_count=0, home_location={lon=129.0921074, lat=35.0766976}, waypoints=[{seq=0, lat=35.0766976, lon=129.0921074, alt=43.8}], ch3out=1000, timestamp=2025-07-18T13:09:57.492337, flight_count=2}
{port=15015, GCS_IP=192.168.0.164, system_id=1, flight_status=0, auto_time=167.0, throttle_active=false, lat=35.08849, lon=129.081671, alt=30.867, dist_traveled=5601.5499748051725, wp_dist=65535, heading=323, target_heading=323, previous_heading=32300, dist_to_home=1619.0166616411184, vertical_speed=0.009716590866446495, ground_speed=25.229345321655273, wind_vel=0.031247379258275032, airspeed=24.971439361572266, gps_hdop=1.21, roll=-0.01, pitch=-2.67, yaw=-36.96, ch3percent=0.0, ch9out=0.0, tot=2597.57, toh=64.17, time_in_air=66.0, throttle_time_in_air=167.143, ch10out=0.0, ch11out=0.0, ch12out=0.0, battery_voltage=0, battery_current=-1, waypoints_count=0, home_location={lon=129.0921074, lat=35.0766976}, waypoints=[{seq=0, lat=35.0766976, lon=129.0921074, alt=43.8}], ch3out=1000, timestamp=2025-07-18T13:09:58.497013, flight_count=2}
{port=15015, GCS_IP=192.168.0.164, system_id=1, flight_status=0, auto_time=167.0, throttle_active=false, lat=35.088672, lon=129.0815064, alt=30.86, dist_traveled=5626.726333282354, wp_dist=65535, heading=322, target_heading=322, previous_heading=32200, dist_to_home=1644.1917206308847, vertical_speed=0.0026255017146468163, ground_speed=25.20950698852539, wind_vel=0.031247379258275032, airspeed=25.016422271728516, gps_hdop=1.21, roll=-0.22, pitch=-2.67, yaw=-37.03, ch3percent=0.0, ch9out=0.0, tot=2599.61, toh=65.22, time_in_air=67.0, throttle_time_in_air=167.143, ch10out=0.0, ch11out=0.0, ch12out=0.0, battery_voltage=0, battery_current=-1, waypoints_count=0, home_location={lon=129.0921074, lat=35.0766976}, waypoints=[{seq=0, lat=35.0766976, lon=129.0921074, alt=43.8}], ch3out=1000, timestamp=2025-07-18T13:09:59.492296, flight_count=2}
{port=15015, GCS_IP=192.168.0.164, system_id=1, flight_status=0, auto_time=167.0, throttle_active=false, lat=35.0888532, lon=129.0813424, alt=30.874, dist_traveled=5651.798693570045, wp_dist=65535, heading=322, target_heading=322, previous_heading=32200, dist_to_home=1669.2627351404137, vertical_speed=-0.0026406748220324516, ground_speed=25.18935775756836, wind_vel=0.031247379258275032, airspeed=25.026628494262695, gps_hdop=1.21, roll=-0.06, pitch=-2.63, yaw=-37.15, ch3percent=0.0, ch9out=0.0, tot=2601.69, toh=66.27, time_in_air=68.0, throttle_time_in_air=167.143, ch10out=0.0, ch11out=0.0, ch12out=0.0, battery_voltage=0, battery_current=-1, waypoints_count=0, home_location={lon=129.0921074, lat=35.0766976}, waypoints=[{seq=0, lat=35.0766976, lon=129.0921074, alt=43.8}], ch3out=1000, timestamp=2025-07-18T13:10:00.495796, flight_count=2}
{port=15015, GCS_IP=192.168.0.164, system_id=1, flight_status=0, auto_time=167.0, throttle_active=false, lat=35.0890344, lon=129.0811781, alt=30.888, dist_traveled=5676.8872888604965, wp_dist=65535, heading=322, target_heading=322, previous_heading=32200, dist_to_home=1694.3497927294607, vertical_speed=0.019771210849285126, ground_speed=25.175020217895508, wind_vel=0.031247379258275032, airspeed=24.992733001708984, gps_hdop=1.21, roll=-0.14, pitch=-2.56, yaw=-37.05, ch3percent=0.0, ch9out=0.0, tot=2603.18, toh=67.3, time_in_air=69.0, throttle_time_in_air=167.143, ch10out=0.0, ch11out=0.0, ch12out=0.0, battery_voltage=0, battery_current=-1, waypoints_count=0, home_location={lon=129.0921074, lat=35.0766976}, waypoints=[{seq=0, lat=35.0766976, lon=129.0921074, alt=43.8}], ch3out=1000, timestamp=2025-07-18T13:10:01.493931, flight_count=2}
